{"locations":[{"name":"Ресторан 14","lat":42.0018173,"long":21.3920576,"rating":4.3},{"name":"Restaurant „Olive“","lat":42.0015833,"long":21.4014243,"rating":4.5},{"name":"Fish Restoran","lat":42.0130406,"long":21.411803,"rating":4.5},{"name":"Day and Night Restaurant","lat":42.0138397,"long":21.4058349,"rating":4.3},{"name":"Restaurant „Slonče“","lat":42.00455729999999,"long":21.393919,"rating":4.6},{"name":"Street Food","lat":42.0039344,"long":21.3985412,"rating":4.3},{"name":"Granche Restaurant","lat":42.0063238,"long":21.4063765,"rating":4.5},{"name":"Jadica Restoran","lat":42.0003737,"long":21.4019617,"rating":4.5},{"name":"Restaurant „Plaza“","lat":41.9970317,"long":21.4039734,"rating":0},{"name":"Restaurant „Bure“","lat":42.003091,"long":21.40025,"rating":4.2},{"name":"Gostilnica Staro Bure","lat":42.0035659,"long":21.3975575,"rating":4.4},{"name":"Skara bar","lat":42.0016373,"long":21.3923788,"rating":4.5},{"name":"Taverna „Toscana“","lat":41.9959537,"long":21.4090288,"rating":4.6},{"name":"Mezzo Lounge","lat":42.0138925,"long":21.4040634,"rating":3.6},{"name":"Balkanika Rustikana","lat":42.0095889,"long":21.4098386,"rating":4.6},{"name":"Restoran Bure Srna","lat":42.00460150000001,"long":21.3936032,"rating":4.4},{"name":"Lyra","lat":42.0059826,"long":21.4108725,"rating":4.4},{"name":"Alka Skopje","lat":41.9973825,"long":21.4086924,"rating":0},{"name":"Zlatno Grne","lat":41.9999603,"long":21.4073137,"rating":4.7},{"name":"Sidro 2","lat":42.0044784,"long":21.3947412,"rating":4.4}]}